ZoneName	Time	SystemTime	Frame	Velocity	LaneName	LanePos	LaneIndex	LaneCount	LaneHeading	SpeedLimit	Steer	Accel	Brake	Gear	Horn	SubjectEngineRPM	SubjectHeading	SubjectPitch	SubjectRoll	SubjectX	SubjectY	SubjectZ	Signal	LatAccel	LongAccel	Collision	CollisionAngle	CollisionVelocity	VehAhead	HeadwayTime	HeadwayDist	TTC	TerrainType	CultureType	Slip	DigitalInputs	DigitalInputs2	ActiveTrigger	EntityName	DistToEntity	TimeToEntity	EntityVelocity	EntityAccel	EntityHeading	EntityX	EntityY	EntityZ	GrabData	
Unknown	0.98335	10/22/0116 07:47.20	00000059	0.004	Inter625t13-0	-0.088	1	2	0.000	11.111	10.9	0.000	0.776	P	F	0.0	0.003	0.154	-0.004	1503.500	523.206	0.019	-	0.001	0.007	-	-	-	-	-	-	-	PAVEMENT_GENERAL	Urban	F	1011101000000001	0000000000000000	-	-	-	-	-	-	-	-	-	-	Terminate	
Unknown	1.98337	10/22/0116 07:47.21	00000119	0.001	Inter625t13-0	-0.088	1	2	0.000	11.111	11.0	0.000	1.000	P	F	16.7	0.003	0.188	0.000	1503.500	523.208	0.024	-	-0.000	-0.001	-	-	-	-	-	-	-	PAVEMENT_GENERAL	Urban	F	1011101000000011	0000000000000000	-	-	-	-	-	-	-	-	-	-	Terminate	
Unknown	2.98339	10/22/0116 07:47.22	00000179	0.000	Inter625t13-0	-0.088	1	2	0.000	11.111	11.0	0.000	1.000	P	F	350.0	0.003	0.201	0.000	1503.500	523.209	0.026	-	-0.000	-0.000	-	-	-	-	-	-	-	PAVEMENT_GENERAL	Urban	F	1011101000000001	0000000000000000	-	-	-	-	-	-	-	-	-	-	Terminate	
Unknown	3.98341	10/22/0116 07:47.23	00000239	0.000	Inter625t13-0	-0.088	1	2	0.000	11.111	11.0	0.000	0.991	P	F	477.5	0.003	0.206	0.000	1503.500	523.209	0.027	-	-0.000	-0.000	-	-	-	-	-	-	-	PAVEMENT_GENERAL	Urban	F	1011101000000001	0000000000000000	-	-	-	-	-	-	-	-	-	-	Terminate	
Unknown	4.98343	10/22/0116 07:47.24	00000299	0.000	Inter625t13-0	-0.088	1	2	0.000	11.111	11.0	0.000	0.979	P	F	477.5	0.003	0.207	0.000	1503.500	523.209	0.027	-	-0.000	-0.000	-	-	-	-	-	-	-	PAVEMENT_GENERAL	Urban	F	1011101000000001	0000000000000000	-	-	-	-	-	-	-	-	-	-	Terminate	
Unknown	5.98345	10/22/0116 07:47.25	00000359	0.000	Inter625t13-0	-0.088	1	2	0.000	11.111	11.0	0.000	0.970	P	F	477.5	0.003	0.208	0.000	1503.500	523.209	0.028	-	0.000	-0.000	-	-	-	-	-	-	-	PAVEMENT_GENERAL	Urban	F	1011101000000001	0000000000000000	-	-	-	-	-	-	-	-	-	-	Terminate	
Unknown	6.98347	10/22/0116 07:47.26	00000419	0.000	Inter625t13-0	-0.088	1	2	0.000	11.111	11.0	0.000	0.955	P	F	477.5	0.003	0.208	0.000	1503.500	523.209	0.028	-	-0.000	-0.000	-	-	-	-	-	-	-	PAVEMENT_GENERAL	Urban	F	1011101000000001	0000000000000000	-	-	-	-	-	-	-	-	-	-	Terminate	
Unknown	7.98349	10/22/0116 07:47.27	00000479	0.000	Inter625t13-0	-0.088	1	2	0.000	11.111	11.0	0.000	0.955	P	F	477.5	0.003	0.208	0.000	1503.500	523.209	0.028	-	-0.000	-0.000	-	-	-	-	-	-	-	PAVEMENT_GENERAL	Urban	F	1011101000000001	0000000000000000	-	-	-	-	-	-	-	-	-	-	Terminate	
Unknown	8.98351	10/22/0116 07:47.28	00000539	0.000	Inter625t13-0	-0.088	1	2	0.000	11.111	11.0	0.000	0.958	P	F	477.5	0.003	0.208	0.000	1503.500	523.209	0.028	-	-0.000	-0.000	-	-	-	-	-	-	-	PAVEMENT_GENERAL	Urban	F	1111101000000001	0000000000000000	-	-	-	-	-	-	-	-	-	-	Terminate	
Unknown	9.98353	10/22/0116 07:47.29	00000599	0.000	Inter625t13-0	-0.088	1	2	0.000	11.111	11.0	0.000	0.890	P	F	477.5	0.003	0.209	0.000	1503.500	523.209	0.028	-	-0.000	-0.000	-	-	-	-	-	-	-	PAVEMENT_GENERAL	Urban	F	1111101000000001	0000000000000000	-	-	-	-	-	-	-	-	-	-	Terminate	
Unknown	10.98355	10/22/0116 07:47.30	00000659	0.000	Inter625t13-0	-0.088	1	2	0.000	11.111	11.0	0.000	0.791	P	F	477.5	0.003	0.209	0.000	1503.500	523.209	0.028	-	-0.000	-0.000	-	-	-	-	-	-	-	PAVEMENT_GENERAL	Urban	F	1111101000000001	0000000000000000	-	-	-	-	-	-	-	-	-	-	Terminate	
Unknown	11.98357	10/22/0116 07:47.31	00000719	-0.000	Inter625t13-0	-0.088	1	2	0.000	11.111	11.0	0.000	0.949	N	F	477.5	0.003	0.209	0.000	1503.500	523.209	0.028	-	-0.000	-0.000	-	-	-	-	-	-	-	PAVEMENT_GENERAL	Urban	F	1011101000000001	0000000000000000	-	-	-	-	-	-	-	-	-	-	Terminate	
Unknown	12.98359	10/22/0116 07:47.32	00000779	0.000	Inter625t13-0	-0.088	1	2	0.000	11.111	11.0	0.000	0.928	D	F	477.5	0.003	0.209	0.000	1503.500	523.209	0.028	-	0.000	0.000	-	-	-	-	-	-	-	PAVEMENT_GENERAL	Urban	F	1111101000000001	0000000000000000	-	-	-	-	-	-	-	-	-	-	Terminate	
Unknown	13.98361	10/22/0116 07:47.33	00000839	0.000	Inter625t13-0	-0.088	1	2	0.000	11.111	11.0	0.000	0.000	D	F	477.5	0.003	0.209	-0.000	1503.500	523.209	0.028	-	0.000	0.000	-	-	-	-	-	-	-	PAVEMENT_GENERAL	Urban	F	1011101000000001	0000000000000000	-	-	-	-	-	-	-	-	-	-	Terminate	
Unknown	14.98363	10/22/0116 07:47.34	00000899	0.174	Inter625t13-0	-0.087	1	2	0.000	11.111	8.6	0.189	0.000	D	F	1453.7	0.024	0.168	-0.012	1503.501	523.228	0.015	-	0.034	0.659	-	-	-	-	-	-	-	PAVEMENT_GENERAL	Urban	F	1111101000000001	0000000000000000	-	-	-	-	-	-	-	-	-	-	Terminate	
Unknown	15.98365	10/22/0116 07:47.35	00000959	3.321	Inter625t13-0	-0.064	1	2	0.000	11.111	12.4	0.247	0.000	D	F	1741.7	0.550	0.230	-0.009	1503.524	525.008	0.012	-	0.064	3.427	-	-	-	-	-	-	-	PAVEMENT_GENERAL	Urban	F	1011101000000001	0000000000000000	-	-	-	-	-	-	-	-	-	-	Terminate	
Unknown	16.98367	10/22/0116 07:47.36	00001019	6.365	Inter625t13-0	0.037	1	2	0.000	11.111	-5.3	0.289	0.000	D	F	2168.9	1.130	0.224	0.017	1503.625	529.940	0.014	-	-0.094	2.609	-	-	-	-	-	-	-	PAVEMENT_GENERAL	Urban	F	1111101000000001	0000000000000000	-	-	-	-	-	-	-	-	-	-	Terminate	
Unknown	17.98369	10/22/0116 07:47.37	00001079	8.825	Inter625t49-0	0.184	1	1	0.006	11.111	3.3	0.300	0.000	D	F	2615.1	1.381	0.226	-0.007	1503.772	537.543	0.015	-	0.081	2.653	-	-	-	-	-	-	-	PAVEMENT_GENERAL	Urban	F	1111101000000001	0000000000000000	-	-	-	-	-	-	-	-	-	-	Terminate	
Unknown	18.98371	10/22/0116 07:47.38	00001139	10.585	Inter625t49-0	0.425	1	1	0.008	11.111	-6.2	0.305	0.000	D	F	2108.4	1.188	0.213	0.027	1504.014	547.330	0.019	-	-0.188	1.459	-	-	-	-	-	-	-	PAVEMENT_GENERAL	Urban	F	1011101000000001	0000000000000000	-	-	-	-	-	-	-	-	-	-	Terminate	
Unknown	19.98373	10/22/0116 07:47.39	00001199	11.946	Inter625t49-0	0.558	1	1	0.006	11.111	-1.9	0.303	0.000	D	F	2211.6	0.393	0.211	0.011	1504.149	558.609	0.020	-	-0.081	1.296	-	-	-	-	-	-	-	PAVEMENT_GENERAL	Urban	F	1011101000000001	0000000000000000	-	-	-	-	-	-	-	-	-	-	Terminate	
Unknown	20.98375	10/22/0116 07:47.40	00001259	13.216	Inter625t49-0	0.604	1	1	0.005	11.111	-4.5	0.310	0.000	D	F	2370.0	0.039	0.209	0.025	1504.197	571.193	0.021	-	-0.158	1.252	-	-	-	-	-	-	-	PAVEMENT_GENERAL	Urban	F	1011101000000001	0000000000000000	-	-	-	-	-	-	-	-	-	-	Terminate	
Unknown	21.98377	10/22/0116 07:47.41	00001319	14.450	Inter625t15-0	0.515	1	2	0.000	11.111	1.9	0.314	0.000	D	F	2520.9	359.347	0.207	-0.001	1504.108	585.028	0.021	-	0.003	1.224	-	-	-	-	-	-	-	PAVEMENT_GENERAL	Urban	F	1111101000000001	0000000000000000	-	-	-	-	-	-	-	-	-	-	Terminate	
Unknown	22.98379	10/22/0116 07:47.42	00001379	15.652	Inter614t1-0	0.438	1	2	0.000	11.111	2.4	0.312	0.000	D	F	2693.9	0.139	0.206	-0.025	1504.031	600.081	0.021	-	0.174	1.187	-	-	-	-	-	-	-	PAVEMENT_GENERAL	Urban	F	1011101000000001	0000000000000000	-	-	-	-	-	-	-	-	-	-	Terminate	
Unknown	23.98381	10/22/0116 07:47.43	00001439	16.829	Inter614t1-0	0.490	1	2	0.000	11.111	-1.9	0.317	0.000	D	F	2866.1	0.058	0.204	0.019	1504.083	616.323	0.021	-	-0.125	1.166	-	-	-	-	-	-	-	PAVEMENT_GENERAL	Urban	F	1011101000000001	0000000000000000	-	-	-	-	-	-	-	-	-	-	Terminate	
Unknown	24.98383	10/22/0116 07:47.44	00001499	17.970	Inter614t1-0	0.526	1	2	0.000	11.111	0.8	0.317	0.000	D	F	3023.8	0.489	0.202	-0.023	1504.119	633.726	0.021	-	0.195	1.115	-	-	-	12	11.430	205.393	2318.053	PAVEMENT_GENERAL	Urban	F	1011101000000001	0000000000000000	-	-	-	-	-	-	-	-	-	-	Terminate	
Unknown	25.98385	10/22/0116 07:47.45	00001559	19.088	Inter614t1-0	0.644	1	2	0.000	11.111	-3.2	0.317	0.000	D	F	2781.6	0.088	0.206	0.029	1504.237	652.248	0.021	-	-0.204	1.211	-	-	-	12	10.768	205.537	-	PAVEMENT_GENERAL	Urban	F	1011101000000001	0000000000000000	-	-	-	-	-	-	-	-	-	-	Terminate	
Unknown	26.98387	10/22/0116 07:47.46	00001619	19.834	Inter614t1-0	0.617	1	2	0.000	11.111	-0.0	0.323	0.000	D	F	2331.0	359.842	0.194	-0.001	1504.210	671.743	0.024	-	0.002	0.635	-	-	-	12	10.416	206.583	-	PAVEMENT_GENERAL	Urban	F	1011101000000001	0000000000000000	-	-	-	-	-	-	-	-	-	-	Terminate	
Unknown	27.98389	10/22/0116 07:47.47	00001679	20.454	Inter614t1-0	0.557	1	2	0.000	11.111	0.6	0.323	0.000	D	F	2371.0	359.770	0.193	0.001	1504.150	691.889	0.024	-	-0.012	0.612	-	-	-	12	10.164	207.895	-	PAVEMENT_GENERAL	Urban	F	1011101000000001	0000000000000000	-	-	-	-	-	-	-	-	-	-	Terminate	
Unknown	28.98391	10/22/0116 07:47.49	00001739	21.060	Inter614t1-0	0.500	1	2	0.000	11.111	0.1	0.325	0.000	D	F	2419.4	359.948	0.192	-0.004	1504.093	712.647	0.024	-	0.042	0.600	-	-	-	12	9.930	209.114	-	PAVEMENT_GENERAL	Urban	F	1111101000000001	0000000000000000	-	-	-	-	-	-	-	-	-	-	Terminate	
Unknown	29.98393	10/22/0116 07:47.50	00001799	21.653	Inter614t1-0	0.475	1	2	0.000	11.111	-0.2	0.323	0.000	D	F	2466.2	359.905	0.190	0.003	1504.068	734.005	0.024	-	-0.023	0.587	-	-	-	12	9.703	210.094	-	PAVEMENT_GENERAL	Urban	F	1011101000000001	0000000000000000	-	-	-	-	-	-	-	-	-	-	Terminate	
Unknown	30.98395	10/22/0116 07:47.51	00001859	22.236	Inter614t1-0	0.441	1	2	0.000	11.111	0.5	0.332	0.000	D	F	2518.4	0.014	0.189	-0.029	1504.035	755.949	0.024	-	0.099	0.593	-	-	-	12	9.467	210.503	-	PAVEMENT_GENERAL	Urban	F	1011101000000001	0000000000000000	-	-	-	-	-	-	-	-	-	-	Terminate	
Unknown	31.98397	10/22/0116 07:47.52	00001919	22.830	Inter614t1-0	0.482	1	2	0.000	11.111	2.8	0.339	0.000	D	F	2568.8	0.370	0.188	-0.031	1504.075	778.482	0.024	-	0.213	0.592	-	-	-	12	9.213	210.324	440.089	PAVEMENT_GENERAL	Urban	F	1111101000000001	0000000000000000	-	-	-	-	-	-	-	-	-	-	Terminate	
Unknown	32.98399	10/22/0116 07:47.53	00001979	23.418	Inter612t1-0	0.664	1	2	0.000	11.111	-4.8	0.344	0.000	D	F	2614.5	0.404	0.187	0.030	1504.258	801.606	0.024	-	-0.213	0.584	-	-	-	12	8.948	209.553	196.566	PAVEMENT_GENERAL	Urban	F	1011101000000001	0000000000000000	-	-	-	-	-	-	-	-	-	-	Terminate	
Unknown	33.98401	10/22/0116 07:47.54	00002039	23.994	Inter612t1-0	0.695	1	2	0.000	11.111	-1.3	0.340	0.000	D	F	2669.6	359.851	0.186	0.008	1504.288	825.313	0.024	-	-0.057	0.572	-	-	-	12	8.677	208.200	126.789	PAVEMENT_GENERAL	Urban	F	1011101000000001	0000000000000000	-	-	-	-	-	-	-	-	-	-	Terminate	
Unknown	34.98403	10/22/0116 07:47.55	00002099	24.559	Inter612t1-0	0.613	1	2	0.000	11.111	1.9	0.332	0.000	D	F	2720.5	359.810	0.184	-0.016	1504.207	849.591	0.024	-	0.079	0.555	-	-	-	12	8.399	206.276	93.460	PAVEMENT_GENERAL	Urban	F	1011101000000001	0000000000000000	-	-	-	-	-	-	-	-	-	-	Terminate	
Unknown	35.98405	10/22/0116 07:47.56	00002159	24.391	Inter612t1-0	0.557	1	2	0.000	11.111	0.2	0.000	0.000	D	F	1697.7	359.905	0.169	-0.002	1504.150	874.201	0.030	-	0.015	-0.674	-	-	-	12	8.364	204.020	100.040	PAVEMENT_GENERAL	Urban	F	1111101000000001	0000000000000000	-	-	-	-	-	-	-	-	-	-	Terminate	
Unknown	36.98407	10/22/0116 07:47.57	00002219	23.835	Inter612t1-0	0.518	1	2	0.000	11.111	-0.3	0.138	0.000	D	F	1831.6	359.845	0.182	0.012	1504.111	898.271	0.028	-	-0.061	-0.212	-	-	-	12	8.488	202.303	136.392	PAVEMENT_GENERAL	Urban	F	1011101000000001	0000000000000000	-	-	-	-	-	-	-	-	-	-	Terminate	
Unknown	37.98409	10/22/0116 07:47.58	00002279	23.862	Inter612t1-0	0.476	1	2	0.000	11.111	1.1	0.222	0.000	D	F	2012.4	0.016	0.182	-0.013	1504.069	922.094	0.026	-	0.092	0.109	-	-	-	12	8.416	200.834	132.993	PAVEMENT_GENERAL	Urban	F	1111101000000001	0000000000000000	-	-	-	-	-	-	-	-	-	-	Terminate	
Unknown	38.98411	10/22/0116 07:47.59	00002339	23.955	Inter612t1-0	0.495	1	2	0.000	11.111	0.3	0.219	0.000	D	F	2014.0	0.074	0.181	-0.001	1504.089	945.999	0.026	-	0.010	0.107	-	-	-	12	8.319	199.282	124.355	PAVEMENT_GENERAL	Urban	F	1011101000000001	0000000000000000	-	-	-	-	-	-	-	-	-	-	Terminate	
Unknown	39.98413	10/22/0116 07:48.00	00002399	24.056	Inter612t1-0	0.534	1	2	0.000	11.111	0.1	0.220	0.000	D	F	2012.7	0.123	0.181	-0.002	1504.127	970.005	0.026	-	0.016	0.097	-	-	-	12	8.215	197.629	115.948	PAVEMENT_GENERAL	Urban	F	1111101000000001	0000000000000000	-	-	-	-	-	-	-	-	-	-	Terminate	
Unknown	40.98415	10/22/0116 07:48.01	00002459	24.150	Inter612t1-0	0.575	1	2	0.000	11.111	-1.2	0.220	0.000	D	F	2016.0	0.017	0.180	0.011	1504.168	994.109	0.027	-	-0.080	0.091	-	-	-	12	8.111	195.878	108.918	PAVEMENT_GENERAL	Urban	F	1111101000000001	0000000000000000	-	-	-	-	-	-	-	-	-	-	Terminate	
Unknown	41.98417	10/22/0116 07:48.02	00002519	24.237	Inter613t1-0	0.535	1	2	0.000	11.111	-0.5	0.201	0.000	D	F	1974.0	359.689	0.179	0.012	1504.128	1018.305	0.027	-	-0.108	0.054	-	-	-	12	8.006	194.037	102.944	PAVEMENT_GENERAL	Urban	F	1011101000000001	0000000000000000	-	-	-	-	-	-	-	-	-	-	Terminate	
Unknown	42.98419	10/22/0116 07:48.03	00002579	24.226	Inter613t1-0	0.378	1	2	0.000	11.111	-1.9	0.196	0.000	D	F	1958.1	359.400	0.179	0.026	1503.972	1042.541	0.027	-	-0.183	-0.030	-	-	-	12	7.932	192.154	102.550	PAVEMENT_GENERAL	Urban	F	1011101000000001	0000000000000000	-	-	-	-	-	-	-	-	-	-	Terminate	
Unknown	43.98421	10/22/0116 07:48.04	00002639	24.263	Inter613t1-0	0.129	1	2	0.000	11.111	5.6	0.226	0.000	D	F	2028.9	359.682	0.180	-0.053	1503.722	1066.768	0.026	-	0.368	0.105	-	-	-	12	7.842	190.281	99.555	PAVEMENT_GENERAL	Urban	F	1011101000000001	0000000000000000	-	-	-	-	-	-	-	-	-	-	Terminate	
Unknown	44.98423	10/22/0116 07:48.05	00002699	24.369	Inter613t1-0	0.154	1	2	0.000	11.111	2.4	0.238	0.000	D	F	2043.0	0.577	0.181	-0.035	1503.747	1091.087	0.027	-	0.259	0.107	-	-	-	12	7.728	188.315	93.365	PAVEMENT_GENERAL	Urban	F	1111101000000001	0000000000000000	-	-	-	-	-	-	-	-	-	-	Terminate	
Unknown	45.98425	10/22/0116 07:48.06	00002759	24.517	Inter613t1-0	0.428	1	2	0.000	11.111	-1.3	0.263	0.000	D	F	2074.7	0.608	0.180	0.018	1504.021	1115.525	0.026	-	-0.116	0.156	-	-	-	12	7.596	186.230	86.015	PAVEMENT_GENERAL	Urban	F	1111101000000001	0000000000000000	-	-	-	-	-	-	-	-	-	-	Terminate	
Unknown	46.98427	10/22/0116 07:48.07	00002819	24.663	Inter613t1-0	0.654	1	2	0.000	11.111	-3.3	0.257	0.000	D	F	2074.7	0.237	0.180	0.036	1504.247	1140.115	0.026	-	-0.262	0.141	-	-	-	12	7.460	183.994	79.609	PAVEMENT_GENERAL	Urban	F	1111101000000001	0000000000000000	-	-	-	-	-	-	-	-	-	-	Terminate	
Unknown	47.98429	10/22/0116 07:48.08	00002879	24.186	Inter613t1-0	0.673	1	2	0.000	11.111	1.7	0.000	0.000	D	F	1649.0	359.866	0.172	-0.008	1504.266	1164.616	0.030	-	0.037	-0.677	-	-	-	12	7.519	181.847	99.140	PAVEMENT_GENERAL	Urban	F	1111101000000001	0000000000000000	-	-	-	-	-	-	-	-	-	-	Terminate	
Unknown	48.98431	10/22/0116 07:48.09	00002939	23.518	Inter613t1-0	0.695	1	2	0.000	11.111	1.8	0.000	0.000	D	F	1603.3	0.259	0.174	-0.020	1504.288	1188.467	0.030	-	0.133	-0.663	-	-	-	12	7.669	180.349	154.711	PAVEMENT_GENERAL	Urban	F	1011101000000001	0000000000000000	-	-	-	-	-	-	-	-	-	-	Terminate	
Unknown	49.98433	10/22/0116 07:48.10	00002999	22.861	Inter746t1-0	0.843	1	2	0.000	11.111	-4.2	0.000	0.000	D	F	1558.7	0.289	0.175	0.037	1504.436	1211.655	0.030	-	-0.257	-0.651	-	-	-	12	7.852	179.514	352.724	PAVEMENT_GENERAL	Urban	F	1011101000000001	0000000000000000	-	-	-	-	-	-	-	-	-	-	Terminate	
Unknown	50.98435	10/22/0116 07:48.11	00003059	22.215	Inter746t1-0	0.802	1	2	0.000	11.111	1.3	0.000	0.000	D	F	1514.7	359.332	0.176	0.027	1504.395	1234.192	0.030	-	-0.202	-0.640	-	-	-	12	8.027	178.327	65.338	PAVEMENT_GENERAL	Urban	F	1111101000000001	0000000000000000	-	-	-	-	-	-	-	-	-	-	Terminate	
Unknown	51.98437	10/22/0116 07:48.12	00003119	21.580	Inter746t1-0	0.637	1	2	0.000	11.111	1.1	0.000	0.000	D	F	1471.3	359.881	0.178	-0.019	1504.230	1256.088	0.030	-	0.169	-0.629	-	-	-	12	8.061	173.950	28.541	PAVEMENT_GENERAL	Urban	F	1111101000000001	0000000000000000	-	-	-	-	-	-	-	-	-	-	Terminate	
Unknown	52.98439	10/22/0116 07:48.13	00003179	20.956	Inter746t1-0	0.621	1	2	0.000	11.111	1.6	0.000	0.000	D	F	1428.8	0.075	0.179	-0.014	1504.214	1277.355	0.030	-	0.094	-0.619	-	-	-	12	7.933	166.247	18.636	PAVEMENT_GENERAL	Urban	F	1011101000000001	0000000000000000	-	-	-	-	-	-	-	-	-	-	Terminate	
Unknown	53.98441	10/22/0116 07:48.14	00003239	20.380	Inter746t1-0	0.622	1	2	0.000	11.111	-4.1	0.474	0.000	D	F	2137.0	359.510	0.188	0.058	1504.216	1298.005	0.029	-	-0.387	0.051	-	-	-	12	7.711	157.152	17.014	PAVEMENT_GENERAL	Urban	F	1111101000000001	0000000000000000	-	-	-	-	-	-	-	-	-	-	Terminate	
Unknown	54.98443	10/22/0116 07:48.15	00003299	20.847	Inter746t1-0	0.433	1	2	0.000	11.111	3.7	0.228	0.000	D	F	2302.4	359.836	0.188	-0.046	1504.026	1318.624	0.025	-	0.340	0.373	-	-	-	-	-	-	-	PAVEMENT_GENERAL	Urban	F	1011101000000001	0000000000000000	-	-	-	-	-	-	-	-	-	-	Terminate	
Unknown	55.98445	10/22/0116 07:48.16	00003359	20.784	Inter746t1-0	0.438	1	2	0.000	11.111	-0.1	0.000	0.000	D	F	1504.8	0.155	0.178	0.003	1504.031	1339.535	0.029	-	0.004	-0.601	-	-	-	-	-	-	-	PAVEMENT_GENERAL	Urban	F	1011101000000001	0000000000000000	-	-	-	-	-	-	-	-	-	-	Terminate	
Unknown	56.98447	10/22/0116 07:48.17	00003419	19.188	Inter746t1-0	0.407	1	2	0.000	11.111	-4.6	0.000	0.319	D	F	1250.9	358.981	0.068	0.071	1504.001	1359.868	0.036	L	-0.551	-4.449	-	-	-	-	-	-	-	PAVEMENT_GENERAL	Urban	F	1011101000100001	0000000000000000	-	-	-	-	-	-	-	-	-	-	Terminate	
Unknown	57.98449	10/22/0116 07:48.18	00003479	17.149	Inter746t1-0	0.100	1	2	0.000	11.111	7.7	0.000	0.054	D	F	1162.4	359.475	0.174	-0.070	1503.694	1377.739	0.031	L	0.513	-1.188	-	-	-	-	-	-	-	PAVEMENT_GENERAL	Urban	F	1011101000100001	0000000000000000	-	-	-	-	-	-	-	-	-	-	Terminate	
Unknown	58.98451	10/22/0116 07:48.19	00003539	14.960	Inter746t1-0	0.100	1	2	0.000	11.111	-9.1	0.000	0.188	D	F	995.1	0.165	0.149	0.042	1503.693	1393.984	0.034	L	-0.264	-2.837	-	-	-	-	-	-	-	PAVEMENT_GENERAL	Urban	F	1011101000100001	0000000000000000	-	-	-	-	-	-	-	-	-	-	Terminate	
Unknown	59.98453	10/22/0116 07:48.20	00003599	12.063	Inter749t9-0	-0.221	1	2	0.000	11.111	-33.5	0.000	0.167	D	F	1092.8	355.898	0.145	0.194	1503.372	1407.496	0.034	L	-1.456	-2.791	-	-	-	-	-	-	-	PAVEMENT_GENERAL	Urban	F	1011101000100001	0000000000000000	-	-	-	-	-	-	-	-	-	-	Terminate	
Unknown	60.98455	10/22/0116 07:48.21	00003659	11.362	Inter749t31-0	-1.465	1	1	356.539	11.111	9.9	0.000	0.000	D	F	1115.1	351.958	0.192	-0.038	1502.005	1419.046	0.029	-	0.208	-0.521	-	-	-	12	4.929	56.003	5.940	PAVEMENT_GENERAL	Urban	F	1111101000000001	0000000000000000	-	-	-	-	-	-	-	-	-	-	Terminate	
Unknown	61.98457	10/22/0116 07:48.22	00003719	12.003	-	-	SH-	1	-	-	29.3	0.305	0.000	D	F	2179.1	356.276	0.210	-0.149	1500.793	1430.526	0.022	-	1.138	1.127	-	-	-	-	-	-	-	PAVEMENT_GENERAL	Urban	F	1011101000000001	0000000000000000	-	-	-	-	-	-	-	-	-	-	Terminate	
Unknown	62.98459	10/22/0116 07:48.23	00003779	13.077	Inter749t31-0	-1.219	1	1	355.739	11.111	2.7	0.273	0.000	D	F	2313.8	0.217	0.206	-0.025	1500.512	1443.068	0.022	-	0.255	1.064	-	-	-	-	-	-	-	PAVEMENT_GENERAL	Urban	F	1111101000000001	0000000000000000	-	-	-	-	-	-	-	-	-	-	Terminate	
Unknown	63.98461	10/22/0116 07:48.24	00003839	14.284	Inter749t31-0	-0.076	1	1	356.903	11.111	-1.9	0.296	0.000	D	F	2483.5	0.138	0.206	0.011	1500.570	1456.759	0.021	-	-0.086	1.148	-	-	-	-	-	-	-	PAVEMENT_GENERAL	Urban	F	1011101000000001	0000000000000000	-	-	-	-	-	-	-	-	-	-	Terminate	
Unknown	64.98463	10/22/0116 07:48.25	00003899	14.616	Inter749t11-0	0.490	LT1	2	0.000	11.111	-3.0	0.000	0.000	D	F	1508.1	359.679	0.183	0.019	1500.552	1471.415	0.029	-	-0.156	-0.558	-	-	-	-	-	-	-	PAVEMENT_GENERAL	Urban	F	1111101000000001	0000000000000000	-	-	-	-	-	-	-	-	-	-	Terminate	
Unknown	65.98465	10/22/0116 07:48.26	00003959	10.649	Inter749t65-0	0.347	1	1	349.962	11.111	-136.9	0.000	0.394	D	F	982.1	354.379	-0.013	0.673	1500.186	1484.448	0.040	-	-3.638	-5.313	-	-	-	-	-	-	-	PAVEMENT_GENERAL	Urban	F	1011101000000001	0000000000000000	-	-	-	-	-	-	-	-	-	-	Terminate	
Unknown	66.98467	10/22/0116 07:48.27	00004019	9.115	Inter749t65-0	0.567	1	1	328.702	11.111	-90.0	0.287	0.000	D	F	1833.5	330.549	0.208	0.285	1497.168	1493.186	0.026	-	-2.501	1.249	-	-	-	-	-	-	-	PAVEMENT_GENERAL	Urban	F	1011101000000001	0000000000000000	-	-	-	-	-	-	-	-	-	-	Terminate	
Unknown	67.98470	10/22/0116 07:48.28	00004079	10.571	Inter749t65-0	0.932	1	1	306.836	11.111	-136.6	0.354	0.000	D	F	2137.4	313.727	0.224	0.553	1491.038	1500.848	0.023	-	-4.114	1.347	-	-	-	-	-	-	-	PAVEMENT_GENERAL	Urban	F	1011101000000001	0000000000000000	-	-	-	-	-	-	-	-	-	-	Terminate	
Unknown	68.98471	10/22/0116 07:48.29	00004139	11.848	Inter749t3-4	-0.703	2	2	270.000	11.111	-142.6	0.367	0.000	D	F	2258.3	288.161	0.222	0.674	1481.394	1506.428	0.028	-	-5.219	1.187	-	-	-	Ambient252	4.206	49.837	47.692	PAVEMENT_GENERAL	Urban	F	1011101000000001	0000000000000000	-	-	-	-	-	-	-	-	-	-	Terminate	
Unknown	69.98473	10/22/0116 07:48.30	00004199	13.140	Inter749t3-4	0.893	2	2	270.000	11.111	-5.9	0.365	0.000	D	F	2389.5	271.307	0.199	0.043	1469.074	1508.024	0.020	-	-0.730	1.387	-	-	-	Ambient252	3.499	45.977	19.678	PAVEMENT_GENERAL	Urban	F	1111101000000001	0000000000000000	-	-	-	-	-	-	-	-	-	-	Terminate	
Unknown	70.98476	10/22/0116 07:48.31	00004259	14.491	Inter749t17-0	0.891	1	1	270.099	11.111	-24.6	0.351	0.000	D	F	2551.1	267.578	0.208	0.180	1455.255	1508.034	0.021	-	-1.386	1.326	-	-	-	Ambient252	3.126	45.303	12.284	PAVEMENT_GENERAL	Urban	F	1011101000000001	0000000000000000	-	-	-	-	-	-	-	-	-	-	Terminate	
Unknown	71.98477	10/22/0116 07:48.32	00004319	15.788	Inter749t17-0	0.053	1	1	270.081	11.111	13.6	0.323	0.000	D	F	2716.8	267.780	0.203	-0.116	1440.129	1507.223	0.021	-	0.812	1.210	-	-	-	Ambient252	2.596	40.987	8.222	PAVEMENT_GENERAL	Urban	F	1011101000000001	0000000000000000	-	-	-	-	-	-	-	-	-	-	Terminate	
Unknown	72.98479	10/22/0116 07:48.33	00004379	16.972	Inter749t17-0	-0.447	1	1	270.061	11.111	8.7	0.317	0.000	D	F	2884.2	268.814	0.204	-0.054	1423.751	1506.746	0.021	-	0.398	1.156	-	-	-	Ambient252	2.087	35.414	5.740	PAVEMENT_GENERAL	Urban	F	1111101000000001	0000000000000000	-	-	-	-	-	-	-	-	-	-	Terminate	
Unknown	73.98481	10/22/0116 07:48.34	00004439	18.095	Inter749t1-3	-0.603	2	2	270.000	11.111	1.2	0.312	0.000	D	F	3037.8	270.073	0.201	-0.019	1406.214	1506.597	0.022	-	0.152	1.097	-	-	-	Ambient252	1.585	28.679	3.933	PAVEMENT_GENERAL	Urban	F	1111101000000001	0000000000000000	-	-	-	-	-	-	-	-	-	-	Terminate	
Unknown	74.98483	10/22/0116 07:48.35	00004499	17.779	Inter747t1-3	-0.645	2	2	270.000	11.111	-26.7	0.000	0.176	D	F	1249.7	268.611	0.109	0.192	1387.989	1506.562	0.031	-	-1.391	-2.534	-	-	-	Ambient252	1.195	21.251	3.046	PAVEMENT_GENERAL	Urban	F	1011101000000001	0000000000000000	-	-	-	-	-	-	-	-	-	-	Terminate	
Unknown	75.98486	10/22/0116 07:48.36	00004559	16.080	Inter747t1-2	1.573	1	2	270.000	11.111	9.0	0.332	0.000	D	F	1964.2	261.197	0.216	0.028	1371.570	1505.180	0.026	-	-0.549	0.729	-	-	-	Ambient252	0.820	13.184	2.499	PAVEMENT_GENERAL	Urban	F	1111101000000001	0000000000000000	-	-	-	-	-	-	-	-	-	-	Terminate	
Unknown	76.98487	10/22/0116 07:48.37	00004619	17.020	Inter747t1-2	-0.377	1	2	270.000	11.111	26.4	0.326	0.000	D	F	2852.2	265.922	0.200	-0.207	1355.186	1503.229	0.022	-	1.602	1.151	-	-	-	Ambient237	7.170	122.042	25.302	PAVEMENT_GENERAL	Urban	F	1011101000000001	0000000000000000	-	-	-	-	-	-	-	-	-	-	Terminate	
Unknown	77.98489	10/22/0116 07:48.38	00004679	18.163	Inter747t1-2	-0.898	1	2	270.000	11.111	7.6	0.314	0.000	D	F	3044.8	270.823	0.196	-0.102	1337.603	1502.709	0.022	-	0.884	1.098	-	-	-	Ambient237	6.423	116.654	19.553	PAVEMENT_GENERAL	Urban	F	1111101000000001	0000000000000000	-	-	-	-	-	-	-	-	-	-	Terminate	
Unknown	78.98492	10/22/0116 07:48.39	00004739	19.090	Inter747t1-2	-0.605	1	2	270.000	11.111	1.7	0.307	0.000	D	F	2294.1	270.872	0.192	-0.002	1318.930	1503.002	0.023	-	0.012	0.647	-	-	-	Ambient237	5.771	110.176	15.984	PAVEMENT_GENERAL	Urban	F	1111101000000001	0000000000000000	-	-	-	-	-	-	-	-	-	-	Terminate	
Unknown	79.98493	10/22/0116 07:48.40	00004799	19.661	Inter747t1-2	-0.307	1	2	270.000	11.111	-3.8	0.289	0.000	D	F	2278.7	270.643	0.193	0.032	1299.548	1503.300	0.024	-	-0.236	0.541	-	-	-	Ambient237	5.238	102.989	13.799	PAVEMENT_GENERAL	Urban	F	1111101000000001	0000000000000000	-	-	-	-	-	-	-	-	-	-	Terminate	
Unknown	80.98495	10/22/0116 07:48.41	00004859	20.190	Inter747t1-2	-0.193	1	2	270.000	11.111	-2.1	0.286	0.000	D	F	2317.5	269.872	0.192	0.033	1279.622	1503.413	0.024	-	-0.233	0.518	-	-	-	Ambient237	4.718	95.257	11.918	PAVEMENT_GENERAL	Urban	F	1011101000000001	0000000000000000	-	-	-	-	-	-	-	-	-	-	Terminate	
Unknown	81.98497	10/22/0116 07:48.42	00004919	20.697	Inter747t1-2	-0.172	1	2	270.000	11.111	4.0	0.280	0.000	D	F	2351.7	270.503	0.191	-0.040	1259.177	1503.435	0.024	-	0.307	0.490	-	-	-	Ambient237	4.204	87.007	10.236	PAVEMENT_GENERAL	Urban	F	1011101000000001	0000000000000000	-	-	-	-	-	-	-	-	-	-	Terminate	
Unknown	82.98499	10/22/0116 07:48.43	00004979	21.148	Inter747t1-2	0.129	1	2	270.000	11.111	2.4	0.014	0.000	D	F	1872.9	271.301	0.180	-0.024	1238.239	1503.736	0.025	-	0.225	-0.034	-	-	-	Ambient237	3.701	78.264	8.744	PAVEMENT_GENERAL	Urban	F	1011101000000001	0000000000000000	-	-	-	-	-	-	-	-	-	-	Terminate	
Unknown	83.98502	10/22/0116 07:48.44	00005039	20.550	Inter747t1-2	0.682	1	2	270.000	11.111	-8.3	0.000	0.000	D	F	1409.1	271.715	0.179	0.035	1217.391	1504.289	0.030	-	-0.249	-0.612	-	-	-	Ambient237	3.387	69.611	8.333	PAVEMENT_GENERAL	Urban	F	1011101000000001	0000000000000000	-	-	-	-	-	-	-	-	-	-	Terminate	
Unknown	84.98503	10/22/0116 07:48.45	00005099	19.934	Inter748t1-2	0.804	1	2	270.000	11.111	-0.5	0.000	0.000	D	F	1359.4	268.580	0.176	0.066	1197.152	1504.411	0.030	-	-0.612	-0.602	-	-	-	Ambient237	3.089	61.567	7.957	PAVEMENT_GENERAL	Urban	F	1011101000000001	0000000000000000	-	-	-	-	-	-	-	-	-	-	Terminate	
Unknown	85.98505	10/22/0116 07:48.46	00005159	19.065	Inter748t1-2	0.424	1	2	270.000	11.111	4.9	0.000	0.122	D	F	1278.3	269.389	0.118	-0.041	1177.547	1504.030	0.031	-	0.339	-2.146	-	-	-	Ambient237	2.841	54.157	7.885	PAVEMENT_GENERAL	Urban	F	1011101000000001	0000000000000000	-	-	-	-	-	-	-	-	-	-	Terminate	
Unknown	86.98507	10/22/0116 07:48.47	00005219	17.763	Inter748t1-2	0.409	1	2	270.000	11.111	5.8	0.000	0.000	D	F	1211.5	270.994	0.191	-0.061	1159.227	1504.016	0.030	R	0.554	-0.563	-	-	-	Ambient237	2.704	48.031	8.629	PAVEMENT_GENERAL	Urban	F	1011101001000001	0000000000000000	-	-	-	-	-	-	-	-	-	-	Terminate	
Unknown	87.98509	10/22/0116 07:48.48	00005279	17.595	Inter748t1-2	0.978	1	2	270.000	11.111	-6.4	0.000	0.000	D	F	1395.3	272.715	0.179	0.020	1141.556	1504.584	0.028	R	-0.024	-0.536	-	-	-	Ambient237	2.419	42.555	7.884	PAVEMENT_GENERAL	Urban	F	1111101001000001	0000000000000000	-	-	-	-	-	-	-	-	-	-	Terminate	
Unknown	88.98512	10/22/0116 07:48.49	00005339	15.706	Inter748t1-2	1.447	1	2	270.000	11.111	-6.2	0.000	0.116	D	F	1058.2	269.910	0.164	0.085	1124.803	1505.054	0.032	-	-0.664	-1.994	-	-	-	Ambient237	2.419	37.997	10.829	PAVEMENT_GENERAL	Urban	F	1011101000000001	0000000000000000	-	-	-	-	-	-	-	-	-	-	Terminate	
Unknown	89.98513	10/22/0116 07:48.50	00005399	13.703	Inter748t1-2	1.229	1	2	270.000	11.111	1.8	0.000	0.122	D	F	919.1	268.316	0.167	0.006	1110.086	1504.835	0.032	-	-0.101	-2.025	-	-	-	Ambient238	2.489	34.108	11.399	PAVEMENT_GENERAL	Urban	F	1111101000000001	0000000000000000	-	-	-	-	-	-	-	-	-	-	Terminate	
Unknown	90.98515	10/22/0116 07:48.51	00005459	12.139	Inter748t1-2	0.919	1	2	270.000	11.111	-1.0	0.000	0.015	D	F	1170.4	268.873	0.193	-0.002	1097.286	1504.526	0.030	-	0.014	-0.730	-	-	-	Ambient237	2.873	34.869	-	PAVEMENT_GENERAL	Urban	F	1111101000000001	0000000000000000	-	-	-	-	-	-	-	-	-	-	Terminate	
Unknown	91.98518	10/22/0116 07:48.52	00005519	11.603	Inter748t1-2	0.662	1	2	270.000	11.111	2.9	0.000	0.000	D	F	1139.6	268.735	0.193	-0.012	1085.422	1504.269	0.029	-	0.085	-0.522	-	-	-	Ambient237	3.034	35.201	-	PAVEMENT_GENERAL	Urban	F	1011101000000001	0000000000000000	-	-	-	-	-	-	-	-	-	-	Terminate	
Unknown	92.98519	10/22/0116 07:48.53	00005579	11.084	Inter748t1-2	0.499	1	2	270.000	11.111	1.7	0.000	0.000	D	F	1089.1	269.558	0.194	-0.013	1074.081	1504.106	0.029	-	0.089	-0.515	-	-	-	Ambient237	3.253	36.054	-	PAVEMENT_GENERAL	Urban	F	1111101000000001	0000000000000000	-	-	-	-	-	-	-	-	-	-	Terminate	
Unknown	93.98521	10/22/0116 07:48.54	00005639	10.428	Inter748t1-2	0.430	1	2	270.000	11.111	1.9	0.000	0.042	D	F	1019.0	269.697	0.177	-0.008	1063.271	1504.037	0.030	-	0.053	-1.034	-	-	-	Ambient237	3.591	37.441	-	PAVEMENT_GENERAL	Urban	F	1011101000000001	0000000000000000	-	-	-	-	-	-	-	-	-	-	Terminate	
Unknown	94.98523	10/22/0116 07:48.55	00005699	9.868	Inter748t1-2	0.409	1	2	270.000	11.111	1.8	0.000	0.000	D	F	969.6	270.031	0.195	-0.008	1053.148	1504.016	0.029	-	0.058	-0.498	-	-	-	Ambient237	4.005	39.516	-	PAVEMENT_GENERAL	Urban	F	1011101000000001	0000000000000000	-	-	-	-	-	-	-	-	-	-	Terminate	
Unknown	95.98525	10/22/0116 07:48.56	00005759	9.532	Inter748t1-2	0.438	1	2	270.000	11.111	-0.3	0.146	0.000	D	F	1488.4	270.219	0.217	-0.002	1043.513	1504.045	0.026	-	-0.005	0.331	-	-	-	-	-	-	-	PAVEMENT_GENERAL	Urban	F	1011101000000001	0000000000000000	-	-	-	-	-	-	-	-	-	-	Terminate	
Unknown	96.98528	10/22/0116 07:48.57	00005819	10.516	Inter748t1-2	0.473	1	2	270.000	11.111	0.2	0.321	0.000	D	F	2078.7	270.204	0.218	0.002	1033.589	1504.080	0.020	-	0.005	1.473	-	-	-	-	-	-	-	PAVEMENT_GENERAL	Urban	F	1111101000000001	0000000000000000	-	-	-	-	-	-	-	-	-	-	Terminate	
Unknown	97.98529	10/22/0116 07:48.58	00005879	12.054	Inter748t1-2	0.524	1	2	270.000	11.111	1.1	0.374	0.000	D	F	2272.3	270.328	0.212	-0.005	1022.299	1504.131	0.019	-	0.040	1.480	-	-	-	-	-	-	-	PAVEMENT_GENERAL	Urban	F	1011101000000001	0000000000000000	-	-	-	-	-	-	-	-	-	-	Terminate	
Unknown	98.98531	10/22/0116 07:48.59	00005939	13.494	Inter748t1-2	0.606	1	2	270.000	11.111	-0.8	0.422	0.000	D	F	2447.3	270.302	0.211	0.007	1009.522	1504.213	0.020	-	-0.051	1.438	-	-	-	-	-	-	-	PAVEMENT_GENERAL	Urban	F	1011101000000001	0000000000000000	-	-	-	-	-	-	-	-	-	-	Terminate	
Unknown	99.98534	10/22/0116 07:49.00	00005999	14.921	Inter752t1-2	-0.015	1	2	269.977	24.444	-0.3	0.448	0.000	D	F	2631.3	270.241	0.705	-0.090	995.309	1504.282	0.040	-	-0.036	1.431	-	-	-	-	-	-	-	FREEWAY_SMOOTH	Urban	F	1011101000000001	0000000000000000	-	-	-	-	-	-	-	-	-	-	Terminate	
Unknown	100.98535	10/22/0116 07:49.01	00006059	16.360	Inter752t1-2	0.062	1	2	269.699	24.444	0.2	0.439	0.000	D	F	2829.3	270.082	0.319	-0.461	979.672	1504.327	0.052	-	-0.051	1.435	-	-	-	-	-	-	-	FREEWAY_SMOOTH	Urban	F	1011101000000001	0000000000000000	-	-	-	-	-	-	-	-	-	-	Terminate	
Unknown	101.98537	10/22/0116 07:49.02	00006119	17.768	Inter752t1-2	0.231	1	2	268.873	24.444	-3.7	0.432	0.000	D	F	3034.1	269.591	0.327	-0.856	962.604	1504.290	0.087	-	-0.268	1.385	-	-	-	-	-	-	-	FREEWAY_SMOOTH	Urban	F	1111101000000001	0000000000000000	-	-	-	-	-	-	-	-	-	-	Terminate	
Unknown	102.98539	10/22/0116 07:49.03	00006179	19.130	Inter752t1-2	0.422	1	2	267.396	24.444	-9.8	0.430	0.000	D	F	3224.9	267.600	0.324	-1.252	944.155	1503.883	0.128	-	-0.772	1.345	-	-	-	-	-	-	-	FREEWAY_SMOOTH	Urban	F	1011101000000001	0000000000000000	-	-	-	-	-	-	-	-	-	-	Terminate	
Unknown	103.98541	10/22/0116 07:49.04	00006239	20.441	Inter752t1-2	0.475	1	2	265.137	24.444	-11.4	0.422	0.000	D	F	3402.1	264.964	0.306	-1.719	924.405	1502.646	0.169	-	-0.973	1.289	-	-	-	-	-	-	-	FREEWAY_SMOOTH	Urban	F	1111101000000001	0000000000000000	-	-	-	-	-	-	-	-	-	-	Terminate	
Unknown	104.98544	10/22/0116 07:49.05	00006299	21.718	Inter752t1-2	0.499	1	2	261.980	24.444	-17.2	0.376	0.000	D	F	2965.7	261.829	0.306	-2.185	903.459	1500.299	0.213	-	-1.379	1.195	-	-	-	-	-	-	-	FREEWAY_SMOOTH	Urban	F	1011101000000001	0000000000000000	-	-	-	-	-	-	-	-	-	-	Terminate	
Unknown	105.98545	10/22/0116 07:49.06	00006359	22.474	Inter752t1-2	0.469	1	2	257.845	24.444	-20.1	0.392	0.000	D	F	2555.6	257.002	0.265	-2.659	881.687	1496.380	0.259	-	-1.974	0.694	-	-	-	-	-	-	-	FREEWAY_SMOOTH	Urban	F	1011101000000001	0000000000000000	-	-	-	-	-	-	-	-	-	-	Terminate	
Unknown	106.98547	10/22/0116 07:49.07	00006419	23.122	Inter752t1-2	0.279	1	2	252.674	24.444	-18.6	0.369	0.000	D	F	2593.1	251.711	0.246	-3.209	859.698	1490.373	0.294	-	-2.028	0.658	-	-	-	-	-	-	-	FREEWAY_SMOOTH	Urban	F	1111101000000001	0000000000000000	-	-	-	-	-	-	-	-	-	-	Terminate	
Unknown	107.98550	10/22/0116 07:49.08	00006479	23.705	Inter752t1-2	0.247	1	2	246.834	24.444	-23.2	0.374	0.000	D	F	2637.6	246.282	0.152	-3.190	837.763	1482.184	0.298	-	-2.428	0.589	-	-	-	-	-	-	-	FREEWAY_SMOOTH	Urban	F	1011101000000001	0000000000000000	-	-	-	-	-	-	-	-	-	-	Terminate	
Unknown	108.98551	10/22/0116 07:49.09	00006539	24.141	Inter752t1-2	0.226	1	2	240.848	24.444	-25.1	0.065	0.000	D	F	2027.9	239.607	0.081	-3.129	816.292	1471.545	0.299	-	-2.934	-0.270	-	-	-	-	-	-	-	FREEWAY_SMOOTH	Urban	F	1011101000000001	0000000000000000	-	-	-	-	-	-	-	-	-	-	Terminate	
Unknown	109.98553	10/22/0116 07:49.10	00006599	23.844	Inter752t1-2	-0.021	1	2	234.867	24.444	-11.5	0.280	0.000	D	F	2071.6	234.369	0.155	-3.334	796.209	1458.564	0.284	-	-1.441	0.200	-	-	-	-	-	-	-	FREEWAY_SMOOTH	Urban	F	1011101000000001	0000000000000000	-	-	-	-	-	-	-	-	-	-	Terminate	
Unknown	110.98555	10/22/0116 07:49.11	00006659	24.134	Inter752t1-2	0.230	1	2	228.878	24.444	-24.5	0.406	0.000	D	F	2160.8	228.628	0.163	-3.137	777.228	1443.908	0.299	-	-2.870	0.341	-	-	-	-	-	-	-	FREEWAY_SMOOTH	Urban	F	1011101000000001	0000000000000000	-	-	-	-	-	-	-	-	-	-	Terminate	
Unknown	111.98557	10/22/0116 07:49.12	00006719	24.429	Inter752t1-2	0.308	1	2	222.824	24.444	-24.7	0.414	0.000	D	F	2174.1	221.683	0.105	-3.134	759.802	1427.013	0.304	-	-2.896	0.342	-	-	-	-	-	-	-	FREEWAY_SMOOTH	Urban	F	1011101000000001	0000000000000000	-	-	-	-	-	-	-	-	-	-	Terminate	
Unknown	112.98560	10/22/0116 07:49.13	00006779	24.729	Inter752t1-2	0.045	1	2	216.675	24.444	-20.0	0.423	0.000	D	F	2188.2	214.954	0.075	-3.170	744.342	1407.917	0.288	-	-2.648	0.349	-	-	-	-	-	-	-	FREEWAY_SMOOTH	Urban	F	1111101000000001	0000000000000000	-	-	-	-	-	-	-	-	-	-	Terminate	
Unknown	113.98561	10/22/0116 07:49.14	00006839	25.039	Inter752t1-2	-0.174	1	2	210.449	24.444	-19.3	0.416	0.000	D	F	2198.8	209.760	0.138	-3.211	730.819	1387.032	0.274	-	-2.307	0.329	-	-	-	-	-	-	-	FREEWAY_SMOOTH	Urban	F	1011101000000001	0000000000000000	-	-	-	-	-	-	-	-	-	-	Terminate	
Unknown	114.98563	10/22/0116 07:49.15	00006899	25.314	Inter752t1-2	-0.037	1	2	204.158	24.444	-26.0	0.411	0.000	D	F	2205.1	203.641	0.141	-3.120	719.204	1364.697	0.283	-	-2.960	0.302	-	-	-	-	-	-	-	FREEWAY_SMOOTH	Urban	F	1111101000000001	0000000000000000	-	-	-	-	-	-	-	-	-	-	Terminate	
Unknown	115.98566	10/22/0116 07:49.16	00006959	25.551	Inter752t1-2	-0.070	1	2	197.757	24.444	-20.5	0.409	0.000	D	F	2213.6	196.125	0.072	-3.114	710.191	1340.927	0.281	-	-3.054	0.289	-	-	-	-	-	-	-	FREEWAY_SMOOTH	Urban	F	1011101000000001	0000000000000000	-	-	-	-	-	-	-	-	-	-	Terminate	
Unknown	116.98567	10/22/0116 07:49.17	00007019	25.773	Inter752t1-2	-0.211	1	2	191.964	24.444	-19.2	0.404	0.000	D	F	2220.7	191.511	0.053	-2.593	703.835	1316.068	0.230	-	-2.077	0.237	-	-	-	-	-	-	-	FREEWAY_SMOOTH	Urban	F	1011101000000001	0000000000000000	-	-	-	-	-	-	-	-	-	-	Terminate	
Unknown	117.98569	10/22/0116 07:49.18	00007079	25.974	Inter752t1-2	-0.215	1	2	187.224	24.444	-13.8	0.404	0.000	D	F	2229.1	186.010	0.023	-1.950	699.618	1290.546	0.185	-	-2.151	0.240	-	-	-	-	-	-	-	FREEWAY_SMOOTH	Urban	F	1011101000000001	0000000000000000	-	-	-	-	-	-	-	-	-	-	Terminate	
Unknown	118.98571	10/22/0116 07:49.19	00007139	26.007	Inter752t1-2	-0.336	1	2	183.639	24.444	-9.1	0.081	0.000	D	F	1881.3	183.249	0.060	-1.420	697.352	1264.599	0.138	-	-1.213	-0.344	-	-	-	-	-	-	-	FREEWAY_SMOOTH	Urban	F	1111101000000001	0000000000000000	-	-	-	-	-	-	-	-	-	-	Terminate	
Unknown	119.98573	10/22/0116 07:49.20	00007199	25.268	Inter752t1-2	-0.357	1	2	181.300	24.444	-3.2	0.000	0.000	D	F	1722.5	180.904	0.062	-0.844	696.332	1238.975	0.096	-	-0.740	-0.748	-	-	-	-	-	-	-	FREEWAY_SMOOTH	Urban	F	1011101000000001	0000000000000000	-	-	-	-	-	-	-	-	-	-	Terminate	
Unknown	120.98576	10/22/0116 07:49.21	00007259	24.530	Inter752t1-2	-0.354	1	2	180.150	24.444	-1.8	0.000	0.000	D	F	1672.4	180.192	0.076	-0.279	696.064	1214.078	0.054	-	-0.239	-0.729	-	-	-	-	-	-	-	FREEWAY_SMOOTH	Urban	F	1111101000000001	0000000000000000	-	-	-	-	-	-	-	-	-	-	Terminate	
Unknown	121.98577	10/22/0116 07:49.22	00007319	23.827	Inter754t3-2	0.402	1	2	180.000	11.111	-3.2	0.000	0.000	D	F	1624.2	180.278	0.174	0.010	695.991	1189.906	0.030	-	-0.037	-0.670	-	-	-	Ambient328	6.885	164.056	11.932	PAVEMENT_GENERAL	Urban	F	1011101000000001	0000000000000000	-	-	-	-	-	-	-	-	-	-	Terminate	
Unknown	122.98579	10/22/0116 07:49.23	00007379	23.164	Inter754t3-2	0.358	1	2	180.000	11.111	1.4	0.000	0.000	D	F	1579.3	179.405	0.174	0.016	696.036	1166.412	0.030	-	-0.137	-0.656	-	-	-	Ambient328	6.503	150.633	11.511	PAVEMENT_GENERAL	Urban	F	1011101000000001	0000000000000000	-	-	-	-	-	-	-	-	-	-	Terminate	
Unknown	123.98581	10/22/0116 07:49.24	00007439	22.513	Inter754t3-2	0.168	1	2	180.000	11.111	-5.5	0.000	0.000	D	F	1534.8	179.228	0.175	0.061	696.225	1143.575	0.030	-	-0.434	-0.646	-	-	-	Ambient328	6.124	137.867	11.087	PAVEMENT_GENERAL	Urban	F	1011101000000001	0000000000000000	-	-	-	-	-	-	-	-	-	-	Terminate	
Unknown	124.98583	10/22/0116 07:49.25	00007499	21.872	Inter754t3-2	-0.288	1	2	180.000	11.111	3.2	0.000	0.000	D	F	1491.3	178.653	0.178	-0.023	696.681	1121.388	0.030	-	0.178	-0.633	-	-	-	Ambient328	5.749	125.751	10.661	PAVEMENT_GENERAL	Urban	F	1111101000000001	0000000000000000	-	-	-	-	-	-	-	-	-	-	Terminate	
Unknown	125.98586	10/22/0116 07:49.26	00007559	21.243	Inter754t9-0	-0.684	1	1	179.996	11.111	1.7	0.000	0.000	D	F	1448.3	179.192	0.179	-0.016	697.078	1099.835	0.030	-	0.121	-0.623	-	-	-	Ambient328	5.379	114.266	10.233	PAVEMENT_GENERAL	Urban	F	1111101000000001	0000000000000000	-	-	-	-	-	-	-	-	-	-	Terminate	
Unknown	126.98587	10/22/0116 07:49.27	00007619	20.620	Inter754t9-0	-0.740	1	1	179.990	11.111	1.9	0.000	0.000	D	F	1406.0	181.243	0.176	-0.082	697.135	1078.904	0.030	-	0.693	-0.613	-	-	-	Ambient328	5.015	103.408	9.808	PAVEMENT_GENERAL	Urban	F	1111101000000001	0000000000000000	-	-	-	-	-	-	-	-	-	-	Terminate	
Unknown	127.98589	10/22/0116 07:49.28	00007679	20.012	Inter754t9-0	-0.350	1	1	179.990	11.111	-3.2	0.000	0.000	D	F	1364.5	180.753	0.181	0.041	696.748	1058.593	0.030	-	-0.303	-0.604	-	-	-	Ambient328	4.537	90.785	9.139	PAVEMENT_GENERAL	Urban	F	1111101000000001	0000000000000000	-	-	-	-	-	-	-	-	-	-	Terminate	
Unknown	128.98592	10/22/0116 07:49.29	00007739	19.412	Inter754t9-0	-0.187	1	1	179.995	11.111	-1.2	0.000	0.000	D	F	1323.7	180.188	0.182	0.014	696.589	1038.882	0.029	-	-0.099	-0.594	-	-	-	Ambient328	4.301	83.496	8.944	PAVEMENT_GENERAL	Urban	F	1011101000000001	0000000000000000	-	-	-	-	-	-	-	-	-	-	Terminate	
Unknown	129.98593	10/22/0116 07:49.30	00007799	18.819	Inter754t1-1	-0.168	1	1	180.000	11.111	1.7	0.000	0.024	D	F	1280.3	179.939	0.182	-0.001	696.572	1019.765	0.029	-	0.027	-0.673	-	-	-	Ambient328	3.958	74.482	8.520	PAVEMENT_GENERAL	Urban	F	1011101000000001	0000000000000000	-	-	-	-	-	-	-	-	-	-	Terminate	
Unknown	130.98595	10/22/0116 07:49.31	00007859	17.234	Inter754t1-1	-0.091	1	1	180.000	11.111	-1.4	0.000	0.143	D	F	1152.1	180.641	0.146	-0.007	696.495	1001.670	0.032	-	0.071	-2.261	-	-	-	Ambient328	3.720	64.107	8.958	PAVEMENT_GENERAL	Urban	F	1111101000000001	0000000000000000	-	-	-	-	-	-	-	-	-	-	Terminate	
Unknown	131.98598	10/22/0116 07:49.32	00007919	14.810	Inter686t1-0	0.010	1	1	180.000	11.111	-3.2	0.000	0.146	D	F	989.8	180.011	0.158	0.026	696.386	985.658	0.033	-	-0.194	-2.368	-	-	-	Ambient328	4.086	60.516	12.786	PAVEMENT_GENERAL	Urban	F	1111101000000001	0000000000000000	-	-	-	-	-	-	-	-	-	-	Terminate	
Unknown	132.98599	10/22/0116 07:49.33	00007979	12.971	Inter686t1-0	-0.064	1	1	180.000	11.111	4.6	0.000	0.000	D	F	885.1	179.391	0.207	-0.021	696.460	971.947	0.029	-	0.101	-0.515	-	-	-	Ambient328	4.385	56.875	19.659	PAVEMENT_GENERAL	Urban	F	1011101000000001	0000000000000000	-	-	-	-	-	-	-	-	-	-	Terminate	
Unknown	133.98601	10/22/0116 07:49.34	00008039	13.073	Inter686t1-0	-0.073	1	1	180.000	11.111	0.4	0.182	0.000	D	F	1756.4	180.421	0.204	-0.007	696.469	959.032	0.024	-	0.082	0.546	-	-	-	Ambient328	4.133	54.031	18.038	PAVEMENT_GENERAL	Urban	F	1111101000000001	0000000000000000	-	-	-	-	-	-	-	-	-	-	Terminate	
Unknown	134.98604	10/22/0116 07:49.35	00008099	13.485	Inter686t1-0	0.018	1	1	180.000	11.111	-5.0	0.159	0.000	D	F	1705.5	180.157	0.199	0.030	696.378	945.739	0.025	-	-0.209	0.342	-	-	-	Ambient328	3.768	50.810	14.910	PAVEMENT_GENERAL	Urban	F	1011101000000001	0000000000000000	-	-	-	-	-	-	-	-	-	-	Terminate	
Unknown	135.98605	10/22/0116 07:49.36	00008159	13.791	Inter686t1-0	-0.004	1	1	180.000	11.111	2.2	0.153	0.000	D	F	1703.6	179.946	0.199	-0.014	696.400	932.096	0.025	-	0.093	0.285	-	-	-	Ambient328	3.425	47.238	12.721	PAVEMENT_GENERAL	Urban	F	1111101000000001	0000000000000000	-	-	-	-	-	-	-	-	-	-	Terminate	
Unknown	136.98607	10/22/0116 07:49.37	00008219	14.069	Inter686t1-0	0.028	1	1	180.000	11.111	2.2	0.152	0.000	D	F	1717.9	180.304	0.199	-0.011	696.368	918.165	0.025	-	0.093	0.271	-	-	-	Ambient328	3.083	43.378	10.868	PAVEMENT_GENERAL	Urban	F	1111101000000001	0000000000000000	-	-	-	-	-	-	-	-	-	-	Terminate	
Unknown	137.98610	10/22/0116 07:49.38	00008279	14.268	Inter686t1-0	0.113	1	1	180.000	11.111	-5.9	0.127	0.000	D	F	1661.2	180.124	0.197	0.034	696.283	903.981	0.026	-	-0.243	0.127	-	-	-	Ambient328	2.752	39.264	9.370	PAVEMENT_GENERAL	Urban	F	1011101000000001	0000000000000000	-	-	-	-	-	-	-	-	-	-	Terminate	
Unknown	138.98611	10/22/0116 07:49.39	00008339	14.359	Inter686t1-0	0.044	1	1	180.000	11.111	3.5	0.026	0.000	D	F	1475.0	179.631	0.192	-0.021	696.352	889.658	0.026	-	0.130	-0.071	-	-	-	Ambient328	2.438	35.012	8.178	PAVEMENT_GENERAL	Urban	F	1011101000000001	0000000000000000	-	-	-	-	-	-	-	-	-	-	Terminate	
Unknown	139.98613	10/22/0116 07:49.40	00008399	13.806	Inter686t1-0	0.046	1	1	180.000	11.111	2.1	0.000	0.030	D	F	1353.3	180.512	0.189	-0.021	696.351	875.569	0.029	-	0.183	-0.637	-	-	-	Ambient328	2.245	30.994	8.312	PAVEMENT_GENERAL	Urban	F	1011101000000001	0000000000000000	-	-	-	-	-	-	-	-	-	-	Terminate	
Unknown	140.98616	10/22/0116 07:49.41	00008459	12.328	Inter686t1-0	0.156	1	1	180.000	11.111	-5.9	0.000	0.081	D	F	1198.1	180.118	0.174	0.032	696.240	862.452	0.031	-	-0.252	-1.566	-	-	-	Ambient328	2.267	27.947	12.421	PAVEMENT_GENERAL	Urban	F	1011101000000001	0000000000000000	-	-	-	-	-	-	-	-	-	-	Terminate	
Unknown	141.98618	10/22/0116 07:49.42	00008519	11.463	Inter686t1-0	0.069	1	1	180.000	11.111	-1.1	0.000	0.000	D	F	1126.2	179.138	0.193	0.010	696.327	850.651	0.029	-	-0.083	-0.520	-	-	-	Ambient328	2.287	26.217	18.923	PAVEMENT_GENERAL	Urban	F	1111101000000001	0000000000000000	-	-	-	-	-	-	-	-	-	-	Terminate	
Unknown	142.98619	10/22/0116 07:49.43	00008579	10.946	Inter686t1-0	-0.054	1	1	180.000	11.111	6.5	0.000	0.000	D	F	1075.5	179.866	0.194	-0.032	696.450	839.447	0.029	-	0.252	-0.514	-	-	-	Ambient328	2.292	25.084	28.874	PAVEMENT_GENERAL	Urban	F	1011101000000001	0000000000000000	-	-	-	-	-	-	-	-	-	-	Terminate	
Unknown	143.98621	10/22/0116 07:49.44	00008639	11.177	Inter686t1-0	-0.009	1	1	180.000	11.111	-1.0	0.143	0.000	D	F	1564.9	180.263	0.202	0.008	696.405	828.454	0.024	-	-0.041	0.404	-	-	-	Ambient328	2.162	24.162	21.965	PAVEMENT_GENERAL	Urban	F	1011101000000001	0000000000000000	-	-	-	-	-	-	-	-	-	-	Terminate	
Unknown	144.98624	10/22/0116 07:49.45	00008699	11.248	Inter686t1-0	0.036	1	1	180.000	11.111	-2.2	0.000	0.000	D	F	1104.8	180.191	0.187	0.011	696.361	817.143	0.028	-	-0.067	-0.516	-	-	-	Ambient328	2.038	22.921	19.589	PAVEMENT_GENERAL	Urban	F	1011101000000001	0000000000000000	-	-	-	-	-	-	-	-	-	-	Terminate	
Unknown	145.98625	10/22/0116 07:49.46	00008759	10.734	Inter686t1-0	0.021	1	1	180.000	11.111	-2.2	0.000	0.000	D	F	1054.7	179.707	0.194	0.013	696.375	806.152	0.029	-	-0.083	-0.510	-	-	-	Ambient328	2.050	22.002	33.498	PAVEMENT_GENERAL	Urban	F	1011101000000001	0000000000000000	-	-	-	-	-	-	-	-	-	-	Terminate	
Unknown	146.98627	10/22/0116 07:49.47	00008819	10.228	Inter682t1-1	-0.047	1	1	180.000	11.111	2.3	0.000	0.000	D	F	1005.0	179.602	0.195	-0.011	696.451	795.672	0.029	-	0.070	-0.503	-	-	-	Ambient328	2.111	21.592	143.379	PAVEMENT_GENERAL	Urban	F	1011101000000001	0000000000000000	-	-	-	-	-	-	-	-	-	-	Terminate	
Unknown	147.98630	10/22/0116 07:49.48	00008879	9.729	Inter682t1-1	-0.059	1	1	180.000	11.111	1.7	0.000	0.000	D	F	956.0	180.197	0.195	-0.001	696.463	785.694	0.029	-	0.059	-0.496	-	-	-	Ambient328	2.229	21.685	-	PAVEMENT_GENERAL	Urban	F	1111101000000001	0000000000000000	-	-	-	-	-	-	-	-	-	-	Terminate	
Unknown	148.98631	10/22/0116 07:49.49	00008939	9.236	Inter682t1-1	-0.007	1	1	180.000	11.111	-2.4	0.000	0.000	D	F	907.6	180.356	0.196	0.011	696.410	776.212	0.029	-	-0.060	-0.489	-	-	-	Ambient328	2.412	22.274	-	PAVEMENT_GENERAL	Urban	F	1011101000000001	0000000000000000	-	-	-	-	-	-	-	-	-	-	Terminate	
Unknown	149.98633	10/22/0116 07:49.50	00008999	8.750	Inter682t1-1	0.029	1	1	180.000	11.111	-0.1	0.000	0.000	D	F	859.9	180.199	0.196	0.000	696.375	767.220	0.029	-	-0.002	-0.483	-	-	-	Ambient328	2.669	23.352	-	PAVEMENT_GENERAL	Urban	F	1011101000000001	0000000000000000	-	-	-	-	-	-	-	-	-	-	Terminate	
Unknown	150.98636	10/22/0116 07:49.51	00009059	8.270	Inter682t1-1	0.054	1	1	180.000	11.111	-0.8	0.000	0.000	D	F	812.8	180.121	0.197	0.003	696.350	758.710	0.029	-	-0.020	-0.477	-	-	-	Ambient328	3.013	24.914	-	PAVEMENT_GENERAL	Urban	F	1111101000000001	0000000000000000	-	-	-	-	-	-	-	-	-	-	Terminate	
Unknown	151.98637	10/22/0116 07:49.52	00009119	7.796	Inter682t1-1	0.060	1	1	180.000	11.111	5.3	0.005	0.000	D	F	768.0	180.031	0.197	-0.021	696.344	750.678	0.028	-	0.122	-0.471	-	-	-	Ambient328	3.457	26.952	-	PAVEMENT_GENERAL	Urban	F	1111101000000001	0000000000000000	-	-	-	-	-	-	-	-	-	-	Terminate	
Unknown	152.98639	10/22/0116 07:49.53	00009179	8.170	Inter682t1-1	0.170	1	1	180.000	11.111	1.4	0.157	0.000	D	F	1494.7	181.222	0.206	-0.003	696.234	742.804	0.023	-	0.027	0.702	-	-	-	Ambient328	3.568	29.149	-	PAVEMENT_GENERAL	Urban	F	1111101000000001	0000000000000000	-	-	-	-	-	-	-	-	-	-	Terminate	
Unknown	153.98642	10/22/0116 07:49.54	00009239	9.142	Inter682t1-1	0.272	1	1	180.000	11.111	-17.5	0.229	0.000	D	F	1892.4	179.864	0.217	0.068	696.132	734.212	0.021	-	-0.448	1.345	-	-	-	Ambient328	3.350	30.627	-	PAVEMENT_GENERAL	Urban	F	1011101000000001	0000000000000000	-	-	-	-	-	-	-	-	-	-	Terminate	
Unknown	154.98643	10/22/0116 07:49.55	00009299	10.343	Inter682t1-1	0.171	1	1	180.000	11.111	4.8	0.213	0.000	D	F	1970.1	179.790	0.210	-0.021	696.233	724.450	0.021	-	0.172	1.091	-	-	-	Ambient328	2.991	30.936	116.543	PAVEMENT_GENERAL	Urban	F	1011101000000001	0000000000000000	-	-	-	-	-	-	-	-	-	-	Terminate	
Unknown	155.98645	10/22/0116 07:49.56	00009359	11.359	Inter682t1-1	0.153	1	1	180.000	11.111	-1.7	0.212	0.000	D	F	2057.9	179.829	0.208	0.006	696.251	713.588	0.022	-	-0.054	0.956	-	-	-	Ambient328	2.654	30.145	23.518	PAVEMENT_GENERAL	Urban	F	1011101000000001	0000000000000000	-	-	-	-	-	-	-	-	-	-	Terminate	
Unknown	156.98647	10/22/0116 07:49.57	00009419	12.258	Inter682t1-1	0.061	1	1	180.000	11.111	0.4	0.182	0.000	D	F	2105.8	179.304	0.202	0.003	696.343	701.766	0.022	-	-0.027	0.745	-	-	-	Ambient328	2.316	28.394	13.024	PAVEMENT_GENERAL	Urban	F	1111101000000001	0000000000000000	-	-	-	-	-	-	-	-	-	-	Terminate	
Unknown	157.98650	10/22/0116 07:49.58	00009479	12.427	Inter682t1-1	-0.026	1	1	180.000	11.111	5.4	0.000	0.000	D	F	1224.8	180.094	0.180	-0.034	696.430	689.309	0.027	-	0.259	-0.574	-	-	-	Ambient328	2.093	26.008	11.070	PAVEMENT_GENERAL	Urban	F	1011101000000001	0000000000000000	-	-	-	-	-	-	-	-	-	-	Terminate	
Unknown	158.98651	10/22/0116 07:49.59	00009539	11.896	Inter682t1-1	0.057	1	1	180.000	11.111	-6.0	0.000	0.000	D	F	1168.9	180.401	0.193	0.031	696.346	677.149	0.029	-	-0.199	-0.527	-	-	-	Ambient328	2.011	23.918	13.154	PAVEMENT_GENERAL	Urban	F	1011101000000001	0000000000000000	-	-	-	-	-	-	-	-	-	-	Terminate	
Unknown	159.98653	10/22/0116 07:50.00	00009599	11.128	Inter682t1-1	0.028	1	1	180.000	11.111	-0.4	0.000	0.000	D	F	1093.3	179.565	0.193	0.005	696.376	665.678	0.029	-	-0.031	-0.514	-	-	-	Ambient328	2.024	22.519	21.427	PAVEMENT_GENERAL	Urban	F	1011101000000001	0000000000000000	-	-	-	-	-	-	-	-	-	-	Terminate	
Unknown	160.98656	10/22/0116 07:50.01	00009659	10.617	Inter682t1-1	-0.047	1	1	180.000	11.111	1.5	0.000	0.000	D	F	1043.2	179.701	0.194	-0.007	696.451	654.807	0.029	-	0.055	-0.508	-	-	-	Ambient328	2.046	21.718	40.266	PAVEMENT_GENERAL	Urban	F	1011101000000001	0000000000000000	-	-	-	-	-	-	-	-	-	-	Terminate	
Unknown	161.98657	10/22/0116 07:50.02	00009719	10.112	Inter682t1-1	-0.073	1	1	180.000	11.111	1.3	0.000	0.000	D	F	993.7	179.977	0.195	-0.001	696.477	644.443	0.029	-	0.044	-0.501	-	-	-	Ambient328	2.119	21.425	616.218	PAVEMENT_GENERAL	Urban	F	1111101000000001	0000000000000000	-	-	-	-	-	-	-	-	-	-	Terminate	
Unknown	162.98659	10/22/0116 07:50.03	00009779	9.614	Inter682t1-1	-0.060	1	1	180.000	11.111	-0.3	0.000	0.000	D	F	944.8	180.147	0.195	0.003	696.464	634.580	0.029	-	-0.004	-0.495	-	-	-	Ambient328	2.202	21.174	22.305	PAVEMENT_GENERAL	Urban	F	1011101000000001	0000000000000000	-	-	-	-	-	-	-	-	-	-	Terminate	
Unknown	163.98662	10/22/0116 07:50.04	00009839	9.123	Inter682t1-1	-0.023	1	1	180.000	11.111	0.9	0.000	0.000	D	F	896.5	180.311	0.196	-0.004	696.427	625.211	0.029	-	0.027	-0.488	-	-	-	Ambient328	2.228	20.330	63.714	PAVEMENT_GENERAL	Urban	F	1011101000000001	0000000000000000	-	-	-	-	-	-	-	-	-	-	Terminate	
Unknown	164.98663	10/22/0116 07:50.05	00009899	8.639	Inter682t1-1	0.041	1	1	180.000	11.111	0.4	0.000	0.000	D	F	849.0	180.480	0.196	0.001	696.363	616.331	0.029	-	0.012	-0.482	-	-	-	Ambient328	2.368	20.457	-	PAVEMENT_GENERAL	Urban	F	1011101000000001	0000000000000000	-	-	-	-	-	-	-	-	-	-	Terminate	
Unknown	165.98665	10/22/0116 07:50.06	00009959	8.160	Inter682t1-1	0.106	1	1	180.000	11.111	-8.2	0.000	0.000	D	F	802.0	180.246	0.196	0.026	696.298	607.932	0.029	L	-0.192	-0.477	-	-	-	Ambient328	2.619	21.368	-	PAVEMENT_GENERAL	Urban	F	1011101000100001	0000000000000000	-	-	-	-	-	-	-	-	-	-	Terminate	
Unknown	166.98668	10/22/0116 07:50.07	00010019	8.320	Inter688t25-1	-0.041	1	1	180.000	11.111	-5.0	0.182	0.000	D	F	1564.6	178.161	0.213	-0.003	696.437	599.834	0.022	L	-0.094	0.871	-	-	-	Ambient328	2.802	23.312	-	PAVEMENT_GENERAL	Urban	F	1111101000100001	0000000000000000	-	-	-	-	-	-	-	-	-	-	Terminate	
Unknown	167.98669	10/22/0116 07:50.08	00010079	9.479	Inter688t25-1	-0.385	1	1	180.000	11.111	-13.8	0.233	0.000	D	F	1933.1	177.445	0.215	0.047	696.781	590.984	0.020	-	-0.346	1.322	-	-	-	Ambient328	2.660	25.211	-	PAVEMENT_GENERAL	Urban	F	1111101000000001	0000000000000000	-	-	-	-	-	-	-	-	-	-	Terminate	
Unknown	168.98671	10/22/0116 07:50.09	00010139	10.550	Inter688t33-0	-0.972	1	1	175.504	11.111	-16.6	0.125	0.000	D	F	1764.3	174.335	0.193	0.074	697.525	580.942	0.022	-	-0.557	0.560	-	-	-	Ambient328	2.504	26.414	-	PAVEMENT_GENERAL	Urban	F	1011101000000001	0000000000000000	-	-	-	-	-	-	-	-	-	-	Terminate	
Unknown	169.98674	10/22/0116 07:50.10	00010199	10.181	Inter688t33-0	-1.362	1	1	172.898	11.111	17.8	0.000	0.000	D	F	1008.0	174.621	0.193	-0.082	698.624	570.578	0.029	-	0.571	-0.505	-	-	-	Ambient328	2.462	25.068	-	PAVEMENT_GENERAL	Urban	F	1011101000000001	0000000000000000	-	-	-	-	-	-	-	-	-	-	Terminate	
Unknown	170.98676	10/22/0116 07:50.11	00010259	9.680	Inter688t33-0	-0.762	1	1	175.001	11.111	13.1	0.000	0.000	D	F	951.4	177.692	0.194	-0.051	699.246	560.669	0.029	-	0.416	-0.498	-	-	-	Ambient322	3.631	35.145	3.631	PAVEMENT_GENERAL	Urban	F	1011101000000001	0000000000000000	-	-	-	-	-	-	-	-	-	-	Terminate	
Unknown	171.98677	10/22/0116 07:50.12	00010319	8.775	Inter688t33-0	-0.091	1	1	176.027	11.111	4.7	0.000	0.215	D	F	836.2	179.144	0.093	-0.007	699.470	551.275	0.031	-	0.114	-3.164	-	-	-	Ambient322	2.940	25.795	2.940	PAVEMENT_GENERAL	Urban	F	1011101000000001	0000000000000000	-	-	-	-	-	-	-	-	-	-	Terminate	
Unknown	172.98679	10/22/0116 07:50.13	00010379	5.636	Inter688t33-0	0.355	1	1	176.027	11.111	-0.8	0.000	0.221	D	F	537.6	179.767	0.151	0.005	699.524	544.049	0.034	-	-0.021	-3.231	-	-	-	Ambient322	2.874	16.195	2.874	PAVEMENT_GENERAL	Urban	F	1011101000000001	0000000000000000	-	-	-	-	-	-	-	-	-	-	Terminate	
Unknown	173.98682	10/22/0116 07:50.14	00010439	2.373	Inter688t27-1	0.419	LT1	1	179.909	11.111	-3.0	0.000	0.221	D	F	477.5	179.828	0.157	0.008	699.538	540.052	0.034	-	-0.037	-3.125	-	-	-	Ambient322	6.135	14.559	6.135	PAVEMENT_GENERAL	Urban	F	1011101000000001	0000000000000000	-	-	-	-	-	-	-	-	-	-	Terminate	
Unknown	174.98683	10/22/0116 07:50.15	00010499	0.279	Inter688t27-1	0.413	LT1	1	179.909	11.111	-8.4	0.000	0.000	D	F	477.5	179.695	0.277	0.000	699.545	539.033	0.031	-	-0.002	0.228	-	-	-	Ambient322	48.449	13.540	48.449	PAVEMENT_GENERAL	Urban	F	1111101000000001	0000000000000000	-	-	-	-	-	-	-	-	-	-	Terminate	
Unknown	175.98685	10/22/0116 07:50.16	00010559	0.422	Inter688t27-1	0.410	LT1	1	179.909	11.111	-8.4	0.000	0.000	D	F	477.5	179.630	0.204	0.000	699.549	538.676	0.027	-	-0.001	0.100	-	-	-	Ambient322	31.277	13.183	31.277	PAVEMENT_GENERAL	Urban	F	1111101000000001	0000000000000000	-	-	-	-	-	-	-	-	-	-	Terminate	
Unknown	176.98688	10/22/0116 07:50.17	00010619	0.488	Inter688t27-1	0.405	LT1	1	179.909	11.111	-9.8	0.000	0.000	D	F	477.5	179.543	0.203	-0.000	699.555	538.217	0.026	-	-0.001	0.042	-	-	-	Ambient322	26.093	12.724	26.093	PAVEMENT_GENERAL	Urban	F	1011101000000001	0000000000000000	-	-	-	-	-	-	-	-	-	-	Terminate	
Unknown	177.98689	10/22/0116 07:50.18	00010679	0.518	Inter688t27-1	0.398	LT1	1	179.909	11.111	-9.7	0.000	0.000	D	F	477.5	179.438	0.204	0.000	699.562	537.713	0.026	-	-0.001	0.026	-	-	-	Ambient322	23.582	12.220	23.582	PAVEMENT_GENERAL	Urban	F	1011101000000001	0000000000000000	-	-	-	-	-	-	-	-	-	-	Terminate	
Unknown	178.98691	10/22/0116 07:50.19	00010739	0.541	Inter688t27-1	0.390	LT1	1	179.909	11.111	-6.7	0.000	0.000	D	F	477.5	179.330	0.204	-0.000	699.571	537.183	0.026	-	0.002	0.021	-	-	-	Ambient322	21.828	11.818	-	PAVEMENT_GENERAL	Urban	F	1011101000000001	0000000000000000	-	-	-	-	-	-	-	-	-	-	Terminate	
Unknown	179.98694	10/22/0116 07:50.20	00010799	1.494	Inter688t27-1	0.381	LT1	1	179.909	11.111	-2.0	0.157	0.000	D	F	1367.4	179.274	0.277	0.000	699.582	536.451	0.020	-	-0.005	3.180	-	-	-	Ambient322	8.571	12.802	-	PAVEMENT_GENERAL	Urban	F	1011101000000001	0000000000000000	-	-	-	-	-	-	-	-	-	-	Terminate	
Unknown	180.98695	10/22/0116 07:50.21	00010859	5.258	Inter688t27-1	0.337	LT1	1	179.909	11.111	-0.3	0.317	0.000	D	F	2038.4	179.174	0.222	0.001	699.631	533.031	0.010	-	0.002	3.205	-	-	-	Ambient322	2.491	13.098	24.987	PAVEMENT_GENERAL	Urban	F	1111101000000001	0000000000000000	-	-	-	-	-	-	-	-	-	-	Terminate	
Unknown	181.98697	10/22/0116 07:50.22	00010919	7.763	Inter688t27-1	0.260	LT1	1	179.909	11.111	4.0	0.095	0.000	D	F	1844.7	179.353	0.197	-0.011	699.718	526.397	0.016	L	0.081	1.304	-	-	-	Ambient322	1.575	12.228	11.880	PAVEMENT_GENERAL	Urban	F	1011101000100001	0000000000000000	-	-	-	-	-	-	-	-	-	-	Terminate	
Unknown	182.98700	10/22/0116 07:50.23	00010979	7.413	Inter688t27-1	0.207	LT1	1	179.909	11.111	-33.7	0.000	0.000	D	F	743.9	179.183	0.195	0.104	699.784	518.764	0.028	L	-0.719	-0.478	-	-	-	Ambient322	1.349	10.002	-	PAVEMENT_GENERAL	Urban	F	1011101000100001	0000000000000000	-	-	-	-	-	-	-	-	-	-	Terminate	
Unknown	183.98701	10/22/0116 07:50.24	00011039	8.106	Inter688t59-0	0.614	1	1	159.153	11.111	-116.2	0.217	0.000	D	F	1798.6	167.509	0.210	0.302	700.735	511.312	0.020	L	-2.412	1.344	-	-	-	Ambient322	1.693	13.724	-	PAVEMENT_GENERAL	Urban	F	1011101000100001	0000000000000000	-	-	-	-	-	-	-	-	-	-	Terminate	
Unknown	184.98703	10/22/0116 07:50.25	00011099	8.952	Inter688t59-0	1.413	1	1	141.805	11.111	-123.3	0.118	0.000	D	F	1615.4	149.620	0.185	0.412	704.159	503.419	0.025	L	-3.129	0.277	-	-	-	Ambient322	1.663	14.885	-	PAVEMENT_GENERAL	Urban	F	1011101000100001	0000000000000000	-	-	-	-	-	-	-	-	-	-	Terminate	
Unknown	185.98706	10/22/0116 07:50.26	00011159	9.033	Inter688t59-0	1.706	1	1	119.958	11.111	-238.5	0.081	0.000	D	F	1416.5	121.372	0.181	0.754	710.535	497.145	0.035	L	-5.697	-0.366	-	-	-	Ambient322	1.903	17.192	-	PAVEMENT_GENERAL	Urban	F	1111101000100001	0000000000000000	-	-	-	-	-	-	-	-	-	-	Terminate	
Unknown	186.98708	10/22/0116 07:50.27	00011219	8.523	Inter688t5-0	1.458	1	1	90.156	11.111	-44.2	0.000	0.000	D	F	841.8	95.947	0.184	0.092	718.997	495.045	0.029	L	-1.116	-0.499	-	-	-	Ambient322	2.264	19.295	-	PAVEMENT_GENERAL	Urban	F	1111101000100001	0000000000000000	-	-	-	-	-	-	-	-	-	-	Terminate	
Unknown	187.98709	10/22/0116 07:50.28	00011279	9.603	Inter688t5-0	1.699	1	1	90.156	11.111	-35.9	0.339	0.000	D	F	2036.3	89.250	0.213	0.124	727.859	494.780	0.019	L	-0.965	1.668	-	-	-	Ambient322	2.135	20.504	-	PAVEMENT_GENERAL	Urban	F	1111101000100001	0000000000000000	-	-	-	-	-	-	-	-	-	-	Terminate	
Unknown	188.98711	10/22/0116 07:50.29	00011339	11.234	Inter688t5-0	0.981	1	1	90.156	11.111	7.2	0.390	0.000	D	F	2205.4	84.721	0.212	-0.024	738.258	495.470	0.019	-	0.060	1.585	-	-	-	Ambient322	1.796	20.177	17.323	PAVEMENT_GENERAL	Urban	F	1011101000000001	0000000000000000	-	-	-	-	-	-	-	-	-	-	Terminate	
Unknown	189.98714	10/22/0116 07:50.30	00011399	12.198	Inter688t19-0	0.266	1	1	90.070	11.111	12.0	0.000	0.000	D	F	1380.8	89.157	0.175	-0.096	750.156	496.158	0.027	-	0.803	-0.478	-	-	-	Ambient322	1.505	18.353	8.622	PAVEMENT_GENERAL	Urban	F	1111101000000001	0000000000000000	-	-	-	-	-	-	-	-	-	-	Terminate	
Unknown	190.98715	10/22/0116 07:50.31	00011459	11.467	Inter688t19-0	0.149	1	1	90.021	11.111	4.2	0.000	0.057	D	F	1120.8	89.358	0.178	-0.018	762.062	496.261	0.030	-	0.060	-1.202	-	-	-	Ambient322	1.440	16.517	11.818	PAVEMENT_GENERAL	Urban	F	1111101000000001	0000000000000000	-	-	-	-	-	-	-	-	-	-	Terminate	
Unknown	191.98717	10/22/0116 07:50.32	00011519	10.404	Inter688t19-0	0.063	1	1	90.003	11.111	1.5	0.000	0.000	D	F	1022.7	89.655	0.204	-0.005	772.957	496.341	0.029	-	0.044	-0.505	-	-	-	Ambient322	1.508	15.693	46.910	PAVEMENT_GENERAL	Urban	F	1011101000000001	0000000000000000	-	-	-	-	-	-	-	-	-	-	Terminate	
Unknown	192.98720	10/22/0116 07:50.33	00011579	9.902	Inter688t19-0	0.058	1	1	90.003	11.111	-1.6	0.000	0.000	D	F	973.0	90.252	0.195	0.004	783.109	496.345	0.029	-	-0.026	-0.499	-	-	-	Ambient322	1.339	13.256	-	PAVEMENT_GENERAL	Urban	F	1111101000000001	0000000000000000	-	-	-	-	-	-	-	-	-	-	Terminate	
Unknown	193.98721	10/22/0116 07:50.34	00011639	9.509	Inter688t7-0	0.076	1	1	90.000	11.111	-0.9	0.034	0.000	D	F	1055.2	90.018	0.201	0.004	792.804	496.328	0.028	-	-0.026	-0.285	-	-	-	Ambient322	1.681	15.988	-	PAVEMENT_GENERAL	Urban	F	1011101000000001	0000000000000000	-	-	-	-	-	-	-	-	-	-	Terminate	
Unknown	194.98723	10/22/0116 07:50.35	00011699	9.748	Inter683t1-0	0.059	1	1	90.000	11.111	0.3	0.143	0.000	D	F	1515.0	89.903	0.207	-0.001	802.356	496.337	0.024	-	0.004	0.508	-	-	-	Ambient322	1.693	16.507	-	PAVEMENT_GENERAL	Urban	F	1111101000000001	0000000000000000	-	-	-	-	-	-	-	-	-	-	Terminate	
Unknown	195.98726	10/22/0116 07:50.36	00011759	10.253	Inter683t1-0	0.048	1	1	90.000	11.111	0.5	0.148	0.000	D	F	1544.3	89.970	0.205	-0.003	812.357	496.348	0.024	-	0.015	0.498	-	-	-	Ambient322	1.617	16.577	90.185	PAVEMENT_GENERAL	Urban	F	1011101000000001	0000000000000000	-	-	-	-	-	-	-	-	-	-	Terminate	
Unknown	196.98727	10/22/0116 07:50.37	00011819	10.616	Inter683t1-0	0.059	1	1	90.000	11.111	1.3	0.000	0.000	D	F	979.7	90.153	0.174	-0.006	822.844	496.337	0.025	-	0.047	-0.511	-	-	-	Ambient322	1.522	16.161	29.562	PAVEMENT_GENERAL	Urban	F	1111101000000001	0000000000000000	-	-	-	-	-	-	-	-	-	-	Terminate	
Unknown	197.98729	10/22/0116 07:50.38	00011879	10.083	Inter683t1-0	0.093	1	1	90.000	11.111	-2.8	0.000	0.036	D	F	986.2	90.144	0.187	0.012	833.202	496.303	0.029	-	-0.071	-0.821	-	-	-	Ambient322	1.574	15.874	1113.006	PAVEMENT_GENERAL	Urban	F	1011101000000001	0000000000000000	-	-	-	-	-	-	-	-	-	-	Terminate	
Unknown	198.98732	10/22/0116 07:50.39	00011939	9.200	Inter683t1-0	0.085	1	1	90.000	11.111	0.1	0.000	0.000	D	F	904.1	89.856	0.193	-0.003	842.779	496.311	0.028	-	-0.000	-0.489	-	-	-	Ambient322	1.779	16.368	-	PAVEMENT_GENERAL	Urban	F	1011101000000001	0000000000000000	-	-	-	-	-	-	-	-	-	-	Terminate	
Unknown	199.98734	10/22/0116 07:50.40	00011999	8.790	Inter683t1-0	0.064	1	1	90.000	11.111	-0.3	0.138	0.000	D	F	1420.6	89.866	0.211	0.001	851.741	496.332	0.027	-	-0.007	0.180	-	-	-	Ambient322	1.988	17.476	-	PAVEMENT_GENERAL	Urban	F	1011101000000001	0000000000000000	-	-	-	-	-	-	-	-	-	-	Terminate	
Unknown	200.98735	10/22/0116 07:50.41	00012059	9.207	Inter683t1-0	0.036	1	1	90.000	11.111	-0.1	0.111	0.000	D	F	1418.5	89.799	0.205	0.001	860.754	496.360	0.025	-	-0.004	0.383	-	-	-	Ambient322	2.013	18.534	-	PAVEMENT_GENERAL	Urban	F	1111101000000001	0000000000000000	-	-	-	-	-	-	-	-	-	-	Terminate	
Unknown	201.98737	10/22/0116 07:50.42	00012119	9.578	Inter683t1-0	0.002	1	1	90.000	11.111	1.3	0.120	0.000	D	F	1438.4	89.801	0.204	-0.005	870.147	496.394	0.025	-	0.028	0.372	-	-	-	Ambient322	2.006	19.212	-	PAVEMENT_GENERAL	Urban	F	1011101000000001	0000000000000000	-	-	-	-	-	-	-	-	-	-	Terminate	
